header: 
  seq: 6824
  stamp: 
    secs: 1464371391
    nsecs: 618656985
  frame_id: ''
name: ['torso_joint_b2']
position: [0.0]
velocity: []
effort: []
---
header: 
  seq: 6827
  stamp: 
    secs: 1464371391
    nsecs: 618764610
  frame_id: ''
name: ['arm_left_joint_1_s', 'arm_left_joint_2_l', 'arm_left_joint_3_e', 'arm_left_joint_4_u', 'arm_left_joint_5_r', 'arm_left_joint_6_b', 'arm_left_joint_7_t']
position: [1.5617629289627075, -0.03880971670150757, 1.5187928511295468e-05, -1.0661925077438354, -0.25564321875572205, -1.550702691078186, 3.0078057534410618e-05]
velocity: []
effort: []
---
header: 
  seq: 6828
  stamp: 
    secs: 1464371391
    nsecs: 643507910
  frame_id: ''
name: ['torso_joint_b2']
position: [0.0]
velocity: []
effort: []
---
header: 
  seq: 6829
  stamp: 
    secs: 1464371391
    nsecs: 643565040
  frame_id: ''
name: ['torso_joint_b1']
position: [0.0]
velocity: []
effort: []
---
header: 
  seq: 6830
  stamp: 
    secs: 1464371391
    nsecs: 643611904
  frame_id: ''
name: ['arm_right_joint_1_s', 'arm_right_joint_2_l', 'arm_right_joint_3_e', 'arm_right_joint_4_u', 'arm_right_joint_5_r', 'arm_right_joint_6_b', 'arm_right_joint_7_t']
position: [1.5729950666427612, 0.0006306365830823779, 0.0, -1.7000758647918701, -1.5187928511295468e-05, 1.5187928511295468e-05, -3.0078057534410618e-05]
velocity: []
effort: []
---
header: 
  seq: 6831
  stamp: 
    secs: 1464371391
    nsecs: 643669383
  frame_id: ''
name: ['arm_left_joint_1_s', 'arm_left_joint_2_l', 'arm_left_joint_3_e', 'arm_left_joint_4_u', 'arm_left_joint_5_r', 'arm_left_joint_6_b', 'arm_left_joint_7_t']
position: [1.5617629289627075, -0.03880971670150757, 1.5187928511295468e-05, -1.0661925077438354, -0.25564321875572205, -1.550702691078186, 3.0078057534410618e-05]
velocity: []
effort: []
---
header: 
  seq: 6832
  stamp: 
    secs: 1464371391
    nsecs: 668598042
  frame_id: ''
name: ['torso_joint_b2']
position: [0.0]
velocity: []
effort: []
---
header: 
  seq: 6833
  stamp: 
    secs: 1464371391
    nsecs: 668636874
  frame_id: ''
name: ['torso_joint_b1']
position: [0.0]
velocity: []
effort: []
---
header: 
  seq: 6834
  stamp: 
    secs: 1464371391
    nsecs: 668685274
  frame_id: ''
name: ['arm_right_joint_1_s', 'arm_right_joint_2_l', 'arm_right_joint_3_e', 'arm_right_joint_4_u', 'arm_right_joint_5_r', 'arm_right_joint_6_b', 'arm_right_joint_7_t']
position: [1.5729950666427612, 0.0006306365830823779, 0.0, -1.7000758647918701, -1.5187928511295468e-05, 1.5187928511295468e-05, -3.0078057534410618e-05]
velocity: []
effort: []
---
header: 
  seq: 6835
  stamp: 
    secs: 1464371391
    nsecs: 668731439
  frame_id: ''
name: ['arm_left_joint_1_s', 'arm_left_joint_2_l', 'arm_left_joint_3_e', 'arm_left_joint_4_u', 'arm_left_joint_5_r', 'arm_left_joint_6_b', 'arm_left_joint_7_t']
position: [1.5617629289627075, -0.03880971670150757, 1.5187928511295468e-05, -1.0661925077438354, -0.25564321875572205, -1.550702691078186, 3.0078057534410618e-05]
velocity: []
effort: []
---
header: 
  seq: 6836
  stamp: 
    secs: 1464371391
    nsecs: 693611209
  frame_id: ''
name: ['torso_joint_b2']
position: [0.0]
velocity: []
effort: []
---
header: 
  seq: 6837
  stamp: 
    secs: 1464371391
    nsecs: 693649272
  frame_id: ''
name: ['torso_joint_b1']
position: [0.0]
velocity: []
effort: []
---
header: 
  seq: 6838
  stamp: 
    secs: 1464371391
    nsecs: 693700536
  frame_id: ''
name: ['arm_right_joint_1_s', 'arm_right_joint_2_l', 'arm_right_joint_3_e', 'arm_right_joint_4_u', 'arm_right_joint_5_r', 'arm_right_joint_6_b', 'arm_right_joint_7_t']
position: [1.5729950666427612, 0.0006306365830823779, 0.0, -1.7000758647918701, -1.5187928511295468e-05, 1.5187928511295468e-05, -3.0078057534410618e-05]
velocity: []
effort: []
---
header: 
  seq: 6839
  stamp: 
    secs: 1464371391
    nsecs: 693734339
  frame_id: ''
name: ['arm_left_joint_1_s', 'arm_left_joint_2_l', 'arm_left_joint_3_e', 'arm_left_joint_4_u', 'arm_left_joint_5_r', 'arm_left_joint_6_b', 'arm_left_joint_7_t']
position: [1.5617629289627075, -0.03880971670150757, 1.5187928511295468e-05, -1.0661925077438354, -0.25564321875572205, -1.550702691078186, 3.0078057534410618e-05]
velocity: []
effort: []
---
header: 
  seq: 6840
  stamp: 
    secs: 1464371391
    nsecs: 718632687
  frame_id: ''
name: ['torso_joint_b2']
position: [0.0]
velocity: []
effort: []
---
header: 
  seq: 6841
  stamp: 
    secs: 1464371391
    nsecs: 718656433
  frame_id: ''
name: ['torso_joint_b1']
position: [0.0]
velocity: []
effort: []
---
header: 
  seq: 6842
  stamp: 
    secs: 1464371391
    nsecs: 718684649
  frame_id: ''
name: ['arm_right_joint_1_s', 'arm_right_joint_2_l', 'arm_right_joint_3_e', 'arm_right_joint_4_u', 'arm_right_joint_5_r', 'arm_right_joint_6_b', 'arm_right_joint_7_t']
position: [1.5729950666427612, 0.0006306365830823779, 0.0, -1.7000758647918701, -1.5187928511295468e-05, 1.5187928511295468e-05, -3.0078057534410618e-05]
velocity: []
effort: []
---
header: 
  seq: 6843
  stamp: 
    secs: 1464371391
    nsecs: 718731512
  frame_id: ''
name: ['arm_left_joint_1_s', 'arm_left_joint_2_l', 'arm_left_joint_3_e', 'arm_left_joint_4_u', 'arm_left_joint_5_r', 'arm_left_joint_6_b', 'arm_left_joint_7_t']
position: [1.5617629289627075, -0.03880971670150757, 1.5187928511295468e-05, -1.0661925077438354, -0.25564321875572205, -1.550702691078186, 3.0078057534410618e-05]
velocity: []
effort: []
---
header: 
  seq: 6844
  stamp: 
    secs: 1464371391
    nsecs: 743429416
  frame_id: ''
name: ['torso_joint_b2']
position: [0.0]
velocity: []
effort: []
---
header: 
  seq: 6847
  stamp: 
    secs: 1464371391
    nsecs: 743544724
  frame_id: ''
name: ['arm_left_joint_1_s', 'arm_left_joint_2_l', 'arm_left_joint_3_e', 'arm_left_joint_4_u', 'arm_left_joint_5_r', 'arm_left_joint_6_b', 'arm_left_joint_7_t']
position: [1.5617629289627075, -0.03880971670150757, 1.5187928511295468e-05, -1.0661925077438354, -0.25564321875572205, -1.550702691078186, 3.0078057534410618e-05]
velocity: []
effort: []
---
header: 
  seq: 6848
  stamp: 
    secs: 1464371391
    nsecs: 768539452
  frame_id: ''
name: ['torso_joint_b2']
position: [0.0]
velocity: []
effort: []
---
header: 
  seq: 6849
  stamp: 
    secs: 1464371391
    nsecs: 768562849
  frame_id: ''
name: ['torso_joint_b1']
position: [0.0]
velocity: []
effort: []
---
header: 
  seq: 6851
  stamp: 
    secs: 1464371391
    nsecs: 768642259
  frame_id: ''
name: ['arm_left_joint_1_s', 'arm_left_joint_2_l', 'arm_left_joint_3_e', 'arm_left_joint_4_u', 'arm_left_joint_5_r', 'arm_left_joint_6_b', 'arm_left_joint_7_t']
position: [1.5617629289627075, -0.03880971670150757, 1.5187928511295468e-05, -1.0661925077438354, -0.25564321875572205, -1.550702691078186, 3.0078057534410618e-05]
velocity: []
effort: []
---
header: 
  seq: 6852
  stamp: 
    secs: 1464371391
    nsecs: 793381089
  frame_id: ''
name: ['torso_joint_b2']
position: [0.0]
velocity: []
effort: []
---
header: 
  seq: 6855
  stamp: 
    secs: 1464371391
    nsecs: 793494092
  frame_id: ''
name: ['arm_left_joint_1_s', 'arm_left_joint_2_l', 'arm_left_joint_3_e', 'arm_left_joint_4_u', 'arm_left_joint_5_r', 'arm_left_joint_6_b', 'arm_left_joint_7_t']
position: [1.5617629289627075, -0.03880971670150757, 1.5187928511295468e-05, -1.0661925077438354, -0.25564321875572205, -1.550702691078186, 3.0078057534410618e-05]
velocity: []
effort: []
---
header: 
  seq: 6856
  stamp: 
    secs: 1464371391
    nsecs: 818647780
  frame_id: ''
name: ['torso_joint_b2']
position: [0.0]
velocity: []
effort: []
---
header: 
  seq: 6857
  stamp: 
    secs: 1464371391
    nsecs: 818669919
  frame_id: ''
name: ['torso_joint_b1']
position: [0.0]
velocity: []
effort: []
---
header: 
  seq: 6858
  stamp: 
    secs: 1464371391
    nsecs: 818694434
  frame_id: ''
name: ['arm_right_joint_1_s', 'arm_right_joint_2_l', 'arm_right_joint_3_e', 'arm_right_joint_4_u', 'arm_right_joint_5_r', 'arm_right_joint_6_b', 'arm_right_joint_7_t']
position: [1.5729950666427612, 0.0006306365830823779, 0.0, -1.7000758647918701, -1.5187928511295468e-05, 1.5187928511295468e-05, -3.0078057534410618e-05]
velocity: []
effort: []
---
header: 
  seq: 6859
  stamp: 
    secs: 1464371391
    nsecs: 818732567
  frame_id: ''
name: ['arm_left_joint_1_s', 'arm_left_joint_2_l', 'arm_left_joint_3_e', 'arm_left_joint_4_u', 'arm_left_joint_5_r', 'arm_left_joint_6_b', 'arm_left_joint_7_t']
position: [1.5617629289627075, -0.03880971670150757, 1.5187928511295468e-05, -1.0661925077438354, -0.25564321875572205, -1.550702691078186, 3.0078057534410618e-05]
velocity: []
effort: []
---
header: 
  seq: 6860
  stamp: 
    secs: 1464371391
    nsecs: 843580140
  frame_id: ''
name: ['torso_joint_b2']
position: [0.0]
velocity: []
effort: []
---
header: 
  seq: 6861
  stamp: 
    secs: 1464371391
    nsecs: 843615480
  frame_id: ''
name: ['torso_joint_b1']
position: [0.0]
velocity: []
effort: []
---
header: 
  seq: 6862
  stamp: 
    secs: 1464371391
    nsecs: 843656896
  frame_id: ''
name: ['arm_right_joint_1_s', 'arm_right_joint_2_l', 'arm_right_joint_3_e', 'arm_right_joint_4_u', 'arm_right_joint_5_r', 'arm_right_joint_6_b', 'arm_right_joint_7_t']
position: [1.5729950666427612, 0.0006306365830823779, 0.0, -1.7000758647918701, -1.5187928511295468e-05, 1.5187928511295468e-05, -3.0078057534410618e-05]
velocity: []
effort: []
---
header: 
  seq: 6863
  stamp: 
    secs: 1464371391
    nsecs: 843700896
  frame_id: ''
name: ['arm_left_joint_1_s', 'arm_left_joint_2_l', 'arm_left_joint_3_e', 'arm_left_joint_4_u', 'arm_left_joint_5_r', 'arm_left_joint_6_b', 'arm_left_joint_7_t']
position: [1.5617629289627075, -0.03880971670150757, 1.5187928511295468e-05, -1.0661925077438354, -0.25564321875572205, -1.550702691078186, 3.0078057534410618e-05]
velocity: []
effort: []
---
header: 
  seq: 6864
  stamp: 
    secs: 1464371391
    nsecs: 868583320
  frame_id: ''
name: ['torso_joint_b2']
position: [0.0]
velocity: []
effort: []
---
header: 
  seq: 6867
  stamp: 
    secs: 1464371391
    nsecs: 868693948
  frame_id: ''
name: ['arm_left_joint_1_s', 'arm_left_joint_2_l', 'arm_left_joint_3_e', 'arm_left_joint_4_u', 'arm_left_joint_5_r', 'arm_left_joint_6_b', 'arm_left_joint_7_t']
position: [1.5617629289627075, -0.03880971670150757, 1.5187928511295468e-05, -1.0661925077438354, -0.25564321875572205, -1.550702691078186, 3.0078057534410618e-05]
velocity: []
effort: []
---
header: 
  seq: 6868
  stamp: 
    secs: 1464371391
    nsecs: 893225629
  frame_id: ''
name: ['torso_joint_b2']
position: [0.0]
velocity: []
effort: []
---
header: 
  seq: 6869
  stamp: 
    secs: 1464371391
    nsecs: 893262156
  frame_id: ''
name: ['torso_joint_b1']
position: [0.0]
velocity: []
effort: []
---
header: 
  seq: 6870
  stamp: 
    secs: 1464371391
    nsecs: 893301896
  frame_id: ''
name: ['arm_right_joint_1_s', 'arm_right_joint_2_l', 'arm_right_joint_3_e', 'arm_right_joint_4_u', 'arm_right_joint_5_r', 'arm_right_joint_6_b', 'arm_right_joint_7_t']
position: [1.5729950666427612, 0.0006306365830823779, 0.0, -1.7000758647918701, -1.5187928511295468e-05, 1.5187928511295468e-05, -3.0078057534410618e-05]
velocity: []
effort: []
---
header: 
  seq: 6871
  stamp: 
    secs: 1464371391
    nsecs: 893375928
  frame_id: ''
name: ['arm_left_joint_1_s', 'arm_left_joint_2_l', 'arm_left_joint_3_e', 'arm_left_joint_4_u', 'arm_left_joint_5_r', 'arm_left_joint_6_b', 'arm_left_joint_7_t']
position: [1.5617629289627075, -0.03880971670150757, 1.5187928511295468e-05, -1.0661925077438354, -0.25564321875572205, -1.550702691078186, 3.0078057534410618e-05]
velocity: []
effort: []
---
header: 
  seq: 6872
  stamp: 
    secs: 1464371391
    nsecs: 918657425
  frame_id: ''
name: ['torso_joint_b2']
position: [0.0]
velocity: []
effort: []
---
header: 
  seq: 6873
  stamp: 
    secs: 1464371391
    nsecs: 918681799
  frame_id: ''
name: ['torso_joint_b1']
position: [0.0]
velocity: []
effort: []
---
header: 
  seq: 6874
  stamp: 
    secs: 1464371391
    nsecs: 918715672
  frame_id: ''
name: ['arm_right_joint_1_s', 'arm_right_joint_2_l', 'arm_right_joint_3_e', 'arm_right_joint_4_u', 'arm_right_joint_5_r', 'arm_right_joint_6_b', 'arm_right_joint_7_t']
position: [1.5729950666427612, 0.0006306365830823779, 0.0, -1.7000758647918701, -1.5187928511295468e-05, 1.5187928511295468e-05, -3.0078057534410618e-05]
velocity: []
effort: []
---
header: 
  seq: 6875
  stamp: 
    secs: 1464371391
    nsecs: 918745215
  frame_id: ''
name: ['arm_left_joint_1_s', 'arm_left_joint_2_l', 'arm_left_joint_3_e', 'arm_left_joint_4_u', 'arm_left_joint_5_r', 'arm_left_joint_6_b', 'arm_left_joint_7_t']
position: [1.5617629289627075, -0.03880971670150757, 1.5187928511295468e-05, -1.0661925077438354, -0.25564321875572205, -1.550702691078186, 3.0078057534410618e-05]
velocity: []
effort: []
---
header: 
  seq: 6876
  stamp: 
    secs: 1464371391
    nsecs: 943227379
  frame_id: ''
name: ['torso_joint_b2']
position: [0.0]
velocity: []
effort: []
---
header: 
  seq: 6879
  stamp: 
    secs: 1464371391
    nsecs: 943380960
  frame_id: ''
name: ['arm_left_joint_1_s', 'arm_left_joint_2_l', 'arm_left_joint_3_e', 'arm_left_joint_4_u', 'arm_left_joint_5_r', 'arm_left_joint_6_b', 'arm_left_joint_7_t']
position: [1.5617629289627075, -0.03880971670150757, 1.5187928511295468e-05, -1.0661925077438354, -0.25564321875572205, -1.550702691078186, 3.0078057534410618e-05]
velocity: []
effort: []
---
header: 
  seq: 6880
  stamp: 
    secs: 1464371391
    nsecs: 968549593
  frame_id: ''
name: ['torso_joint_b2']
position: [0.0]
velocity: []
effort: []
---
header: 
  seq: 6883
  stamp: 
    secs: 1464371391
    nsecs: 968619504
  frame_id: ''
name: ['arm_left_joint_1_s', 'arm_left_joint_2_l', 'arm_left_joint_3_e', 'arm_left_joint_4_u', 'arm_left_joint_5_r', 'arm_left_joint_6_b', 'arm_left_joint_7_t']
position: [1.5617629289627075, -0.03880971670150757, 1.5187928511295468e-05, -1.0661925077438354, -0.25564321875572205, -1.550702691078186, 3.0078057534410618e-05]
velocity: []
effort: []
---
header: 
  seq: 6884
  stamp: 
    secs: 1464371391
    nsecs: 993193439
  frame_id: ''
name: ['torso_joint_b2']
position: [0.0]
velocity: []
effort: []
---
header: 
  seq: 6885
  stamp: 
    secs: 1464371391
    nsecs: 993217465
  frame_id: ''
name: ['torso_joint_b1']
position: [0.0]
velocity: []
effort: []
---
header: 
  seq: 6886
  stamp: 
    secs: 1464371391
    nsecs: 993240792
  frame_id: ''
name: ['arm_right_joint_1_s', 'arm_right_joint_2_l', 'arm_right_joint_3_e', 'arm_right_joint_4_u', 'arm_right_joint_5_r', 'arm_right_joint_6_b', 'arm_right_joint_7_t']
position: [1.5729950666427612, 0.0006306365830823779, 0.0, -1.7000758647918701, -1.5187928511295468e-05, 1.5187928511295468e-05, -3.0078057534410618e-05]
velocity: []
effort: []
---
header: 
  seq: 6887
  stamp: 
    secs: 1464371391
    nsecs: 993278506
  frame_id: ''
name: ['arm_left_joint_1_s', 'arm_left_joint_2_l', 'arm_left_joint_3_e', 'arm_left_joint_4_u', 'arm_left_joint_5_r', 'arm_left_joint_6_b', 'arm_left_joint_7_t']
position: [1.5617629289627075, -0.03880971670150757, 1.5187928511295468e-05, -1.0661925077438354, -0.25564321875572205, -1.550702691078186, 3.0078057534410618e-05]
velocity: []
effort: []
---
header: 
  seq: 6888
  stamp: 
    secs: 1464371392
    nsecs: 18645768
  frame_id: ''
name: ['torso_joint_b2']
position: [0.0]
velocity: []
effort: []
---
header: 
  seq: 6891
  stamp: 
    secs: 1464371392
    nsecs: 18772879
  frame_id: ''
name: ['arm_left_joint_1_s', 'arm_left_joint_2_l', 'arm_left_joint_3_e', 'arm_left_joint_4_u', 'arm_left_joint_5_r', 'arm_left_joint_6_b', 'arm_left_joint_7_t']
position: [1.5617629289627075, -0.03880971670150757, 1.5187928511295468e-05, -1.0661925077438354, -0.25564321875572205, -1.550702691078186, 3.0078057534410618e-05]
velocity: []
effort: []
---
header: 
  seq: 6892
  stamp: 
    secs: 1464371392
    nsecs: 43570306
  frame_id: ''
name: ['torso_joint_b2']
position: [0.0]
velocity: []
effort: []
---
header: 
  seq: 6895
  stamp: 
    secs: 1464371392
    nsecs: 43688548
  frame_id: ''
name: ['arm_left_joint_1_s', 'arm_left_joint_2_l', 'arm_left_joint_3_e', 'arm_left_joint_4_u', 'arm_left_joint_5_r', 'arm_left_joint_6_b', 'arm_left_joint_7_t']
position: [1.5617629289627075, -0.03880971670150757, 1.5187928511295468e-05, -1.0661925077438354, -0.25564321875572205, -1.550702691078186, 3.0078057534410618e-05]
velocity: []
effort: []
---
header: 
  seq: 6896
  stamp: 
    secs: 1464371392
    nsecs: 68627543
  frame_id: ''
name: ['torso_joint_b2']
position: [0.0]
velocity: []
effort: []
---
header: 
  seq: 6899
  stamp: 
    secs: 1464371392
    nsecs: 68735378
  frame_id: ''
name: ['arm_left_joint_1_s', 'arm_left_joint_2_l', 'arm_left_joint_3_e', 'arm_left_joint_4_u', 'arm_left_joint_5_r', 'arm_left_joint_6_b', 'arm_left_joint_7_t']
position: [1.5617629289627075, -0.03880971670150757, 1.5187928511295468e-05, -1.0661925077438354, -0.25564321875572205, -1.550702691078186, 3.0078057534410618e-05]
velocity: []
effort: []
---
header: 
  seq: 6900
  stamp: 
    secs: 1464371392
    nsecs: 93280608
  frame_id: ''
name: ['torso_joint_b2']
position: [0.0]
velocity: []
effort: []
---
header: 
  seq: 6903
  stamp: 
    secs: 1464371392
    nsecs: 93394100
  frame_id: ''
name: ['arm_left_joint_1_s', 'arm_left_joint_2_l', 'arm_left_joint_3_e', 'arm_left_joint_4_u', 'arm_left_joint_5_r', 'arm_left_joint_6_b', 'arm_left_joint_7_t']
position: [1.5617629289627075, -0.03880971670150757, 1.5187928511295468e-05, -1.0661925077438354, -0.25564321875572205, -1.550702691078186, 3.0078057534410618e-05]
velocity: []
effort: []
---
header: 
  seq: 6904
  stamp: 
    secs: 1464371392
    nsecs: 118680277
  frame_id: ''
name: ['torso_joint_b2']
position: [0.0]
velocity: []
effort: []
---
header: 
  seq: 6907
  stamp: 
    secs: 1464371392
    nsecs: 118800893
  frame_id: ''
name: ['arm_left_joint_1_s', 'arm_left_joint_2_l', 'arm_left_joint_3_e', 'arm_left_joint_4_u', 'arm_left_joint_5_r', 'arm_left_joint_6_b', 'arm_left_joint_7_t']
position: [1.5617629289627075, -0.03880971670150757, 1.5187928511295468e-05, -1.0661925077438354, -0.25564321875572205, -1.550702691078186, 3.0078057534410618e-05]
velocity: []
effort: []
---
header: 
  seq: 6908
  stamp: 
    secs: 1464371392
    nsecs: 143163907
  frame_id: ''
name: ['torso_joint_b2']
position: [0.0]
velocity: []
effort: []
---
header: 
  seq: 6909
  stamp: 
    secs: 1464371392
    nsecs: 143185278
  frame_id: ''
name: ['torso_joint_b1']
position: [0.0]
velocity: []
effort: []
---
header: 
  seq: 6910
  stamp: 
    secs: 1464371392
    nsecs: 143213494
  frame_id: ''
name: ['arm_right_joint_1_s', 'arm_right_joint_2_l', 'arm_right_joint_3_e', 'arm_right_joint_4_u', 'arm_right_joint_5_r', 'arm_right_joint_6_b', 'arm_right_joint_7_t']
position: [1.5729950666427612, 0.0006306365830823779, 0.0, -1.7000758647918701, -1.5187928511295468e-05, 1.5187928511295468e-05, -3.0078057534410618e-05]
velocity: []
effort: []
---
header: 
  seq: 6911
  stamp: 
    secs: 1464371392
    nsecs: 143244993
  frame_id: ''
name: ['arm_left_joint_1_s', 'arm_left_joint_2_l', 'arm_left_joint_3_e', 'arm_left_joint_4_u', 'arm_left_joint_5_r', 'arm_left_joint_6_b', 'arm_left_joint_7_t']
position: [1.5617629289627075, -0.03880971670150757, 1.5187928511295468e-05, -1.0661925077438354, -0.25564321875572205, -1.550702691078186, 3.0078057534410618e-05]
velocity: []
effort: []
---
header: 
  seq: 6912
  stamp: 
    secs: 1464371392
    nsecs: 168739087
  frame_id: ''
name: ['torso_joint_b2']
position: [0.0]
velocity: []
effort: []
---
header: 
  seq: 6915
  stamp: 
    secs: 1464371392
    nsecs: 168882401
  frame_id: ''
name: ['arm_left_joint_1_s', 'arm_left_joint_2_l', 'arm_left_joint_3_e', 'arm_left_joint_4_u', 'arm_left_joint_5_r', 'arm_left_joint_6_b', 'arm_left_joint_7_t']
position: [1.5617629289627075, -0.03880971670150757, 1.5187928511295468e-05, -1.0661925077438354, -0.25564321875572205, -1.550702691078186, 3.0078057534410618e-05]
velocity: []
effort: []
---
header: 
  seq: 6916
  stamp: 
    secs: 1464371392
    nsecs: 193224882
  frame_id: ''
name: ['torso_joint_b2']
position: [0.0]
velocity: []
effort: []
---
header: 
  seq: 6919
  stamp: 
    secs: 1464371392
    nsecs: 193337396
  frame_id: ''
name: ['arm_left_joint_1_s', 'arm_left_joint_2_l', 'arm_left_joint_3_e', 'arm_left_joint_4_u', 'arm_left_joint_5_r', 'arm_left_joint_6_b', 'arm_left_joint_7_t']
position: [1.5617629289627075, -0.03880971670150757, 1.5187928511295468e-05, -1.0661925077438354, -0.25564321875572205, -1.550702691078186, 3.0078057534410618e-05]
velocity: []
effort: []
---
header: 
  seq: 6920
  stamp: 
    secs: 1464371392
    nsecs: 218608557
  frame_id: ''
name: ['torso_joint_b2']
position: [0.0]
velocity: []
effort: []
---
header: 
  seq: 6921
  stamp: 
    secs: 1464371392
    nsecs: 218631814
  frame_id: ''
name: ['torso_joint_b1']
position: [0.0]
velocity: []
effort: []
---
header: 
  seq: 6923
  stamp: 
    secs: 1464371392
    nsecs: 218684823
  frame_id: ''
name: ['arm_left_joint_1_s', 'arm_left_joint_2_l', 'arm_left_joint_3_e', 'arm_left_joint_4_u', 'arm_left_joint_5_r', 'arm_left_joint_6_b', 'arm_left_joint_7_t']
position: [1.5617629289627075, -0.03880971670150757, 1.5187928511295468e-05, -1.0661925077438354, -0.25564321875572205, -1.550702691078186, 3.0078057534410618e-05]
velocity: []
effort: []
---
header: 
  seq: 6924
  stamp: 
    secs: 1464371392
    nsecs: 243207704
  frame_id: ''
name: ['torso_joint_b2']
position: [0.0]
velocity: []
effort: []
---
header: 
  seq: 6925
  stamp: 
    secs: 1464371392
    nsecs: 243240600
  frame_id: ''
name: ['torso_joint_b1']
position: [0.0]
velocity: []
effort: []
---
header: 
  seq: 6926
  stamp: 
    secs: 1464371392
    nsecs: 243279571
  frame_id: ''
name: ['arm_right_joint_1_s', 'arm_right_joint_2_l', 'arm_right_joint_3_e', 'arm_right_joint_4_u', 'arm_right_joint_5_r', 'arm_right_joint_6_b', 'arm_right_joint_7_t']
position: [1.5729950666427612, 0.0006306365830823779, 0.0, -1.7000758647918701, -1.5187928511295468e-05, 1.5187928511295468e-05, -3.0078057534410618e-05]
velocity: []
effort: []
---
header: 
  seq: 6927
  stamp: 
    secs: 1464371392
    nsecs: 243371063
  frame_id: ''
name: ['arm_left_joint_1_s', 'arm_left_joint_2_l', 'arm_left_joint_3_e', 'arm_left_joint_4_u', 'arm_left_joint_5_r', 'arm_left_joint_6_b', 'arm_left_joint_7_t']
position: [1.5617629289627075, -0.03880971670150757, 1.5187928511295468e-05, -1.0661925077438354, -0.25564321875572205, -1.550702691078186, 3.0078057534410618e-05]
velocity: []
effort: []
---
header: 
  seq: 6928
  stamp: 
    secs: 1464371392
    nsecs: 268650116
  frame_id: ''
name: ['torso_joint_b2']
position: [0.0]
velocity: []
effort: []
---
header: 
  seq: 6931
  stamp: 
    secs: 1464371392
    nsecs: 268766890
  frame_id: ''
name: ['arm_left_joint_1_s', 'arm_left_joint_2_l', 'arm_left_joint_3_e', 'arm_left_joint_4_u', 'arm_left_joint_5_r', 'arm_left_joint_6_b', 'arm_left_joint_7_t']
position: [1.5617629289627075, -0.03880971670150757, 1.5187928511295468e-05, -1.0661925077438354, -0.25564321875572205, -1.550702691078186, 3.0078057534410618e-05]
velocity: []
effort: []
---
header: 
  seq: 6932
  stamp: 
    secs: 1464371392
    nsecs: 293373581
  frame_id: ''
name: ['torso_joint_b2']
position: [0.0]
velocity: []
effort: []
---
header: 
  seq: 6933
  stamp: 
    secs: 1464371392
    nsecs: 293410317
  frame_id: ''
name: ['torso_joint_b1']
position: [0.0]
velocity: []
effort: []
---
header: 
  seq: 6934
  stamp: 
    secs: 1464371392
    nsecs: 293450895
  frame_id: ''
name: ['arm_right_joint_1_s', 'arm_right_joint_2_l', 'arm_right_joint_3_e', 'arm_right_joint_4_u', 'arm_right_joint_5_r', 'arm_right_joint_6_b', 'arm_right_joint_7_t']
position: [1.5729950666427612, 0.0006306365830823779, 0.0, -1.7000758647918701, -1.5187928511295468e-05, 1.5187928511295468e-05, -3.0078057534410618e-05]
velocity: []
effort: []
---
header: 
  seq: 6935
  stamp: 
    secs: 1464371392
    nsecs: 293509073
  frame_id: ''
name: ['arm_left_joint_1_s', 'arm_left_joint_2_l', 'arm_left_joint_3_e', 'arm_left_joint_4_u', 'arm_left_joint_5_r', 'arm_left_joint_6_b', 'arm_left_joint_7_t']
position: [1.5617629289627075, -0.03880971670150757, 1.5187928511295468e-05, -1.0661925077438354, -0.25564321875572205, -1.550702691078186, 3.0078057534410618e-05]
velocity: []
effort: []
---
header: 
  seq: 6936
  stamp: 
    secs: 1464371392
    nsecs: 318693211
  frame_id: ''
name: ['torso_joint_b2']
position: [0.0]
velocity: []
effort: []
---
header: 
  seq: 6937
  stamp: 
    secs: 1464371392
    nsecs: 318732183
  frame_id: ''
name: ['torso_joint_b1']
position: [0.0]
velocity: []
effort: []
---
header: 
  seq: 6938
  stamp: 
    secs: 1464371392
    nsecs: 318770456
  frame_id: ''
name: ['arm_right_joint_1_s', 'arm_right_joint_2_l', 'arm_right_joint_3_e', 'arm_right_joint_4_u', 'arm_right_joint_5_r', 'arm_right_joint_6_b', 'arm_right_joint_7_t']
position: [1.5729950666427612, 0.0006306365830823779, 0.0, -1.7000758647918701, -1.5187928511295468e-05, 1.5187928511295468e-05, -3.0078057534410618e-05]
velocity: []
effort: []
---
header: 
  seq: 6939
  stamp: 
    secs: 1464371392
    nsecs: 318816761
  frame_id: ''
name: ['arm_left_joint_1_s', 'arm_left_joint_2_l', 'arm_left_joint_3_e', 'arm_left_joint_4_u', 'arm_left_joint_5_r', 'arm_left_joint_6_b', 'arm_left_joint_7_t']
position: [1.5617629289627075, -0.03880971670150757, 1.5187928511295468e-05, -1.0661925077438354, -0.25564321875572205, -1.550702691078186, 3.0078057534410618e-05]
velocity: []
effort: []
---
header: 
  seq: 6940
  stamp: 
    secs: 1464371392
    nsecs: 343227476
  frame_id: ''
name: ['torso_joint_b2']
position: [0.0]
velocity: []
effort: []
---
header: 
  seq: 6943
  stamp: 
    secs: 1464371392
    nsecs: 343383432
  frame_id: ''
name: ['arm_left_joint_1_s', 'arm_left_joint_2_l', 'arm_left_joint_3_e', 'arm_left_joint_4_u', 'arm_left_joint_5_r', 'arm_left_joint_6_b', 'arm_left_joint_7_t']
position: [1.5617629289627075, -0.03880971670150757, 1.5187928511295468e-05, -1.0661925077438354, -0.25564321875572205, -1.550702691078186, 3.0078057534410618e-05]
velocity: []
effort: []
---
header: 
  seq: 6944
  stamp: 
    secs: 1464371392
    nsecs: 368603329
  frame_id: ''
name: ['torso_joint_b2']
position: [0.0]
velocity: []
effort: []
---
header: 
  seq: 6945
  stamp: 
    secs: 1464371392
    nsecs: 368655361
  frame_id: ''
name: ['torso_joint_b1']
position: [0.0]
velocity: []
effort: []
---
header: 
  seq: 6946
  stamp: 
    secs: 1464371392
    nsecs: 368714167
  frame_id: ''
name: ['arm_right_joint_1_s', 'arm_right_joint_2_l', 'arm_right_joint_3_e', 'arm_right_joint_4_u', 'arm_right_joint_5_r', 'arm_right_joint_6_b', 'arm_right_joint_7_t']
position: [1.5729950666427612, 0.0006306365830823779, 0.0, -1.7000758647918701, -1.5187928511295468e-05, 1.5187928511295468e-05, -3.0078057534410618e-05]
velocity: []
effort: []
---
header: 
  seq: 6947
  stamp: 
    secs: 1464371392
    nsecs: 368758307
  frame_id: ''
name: ['arm_left_joint_1_s', 'arm_left_joint_2_l', 'arm_left_joint_3_e', 'arm_left_joint_4_u', 'arm_left_joint_5_r', 'arm_left_joint_6_b', 'arm_left_joint_7_t']
position: [1.5617629289627075, -0.03880971670150757, 1.5187928511295468e-05, -1.0661925077438354, -0.25564321875572205, -1.550702691078186, 3.0078057534410618e-05]
velocity: []
effort: []
---
header: 
  seq: 6948
  stamp: 
    secs: 1464371392
    nsecs: 393362902
  frame_id: ''
name: ['torso_joint_b2']
position: [0.0]
velocity: []
effort: []
---
header: 
  seq: 6949
  stamp: 
    secs: 1464371392
    nsecs: 393387836
  frame_id: ''
name: ['torso_joint_b1']
position: [0.0]
velocity: []
effort: []
---
header: 
  seq: 6950
  stamp: 
    secs: 1464371392
    nsecs: 393411023
  frame_id: ''
name: ['arm_right_joint_1_s', 'arm_right_joint_2_l', 'arm_right_joint_3_e', 'arm_right_joint_4_u', 'arm_right_joint_5_r', 'arm_right_joint_6_b', 'arm_right_joint_7_t']
position: [1.5729950666427612, 0.0006306365830823779, 0.0, -1.7000758647918701, -1.5187928511295468e-05, 1.5187928511295468e-05, -3.0078057534410618e-05]
velocity: []
effort: []
---
header: 
  seq: 6951
  stamp: 
    secs: 1464371392
    nsecs: 393444128
  frame_id: ''
name: ['arm_left_joint_1_s', 'arm_left_joint_2_l', 'arm_left_joint_3_e', 'arm_left_joint_4_u', 'arm_left_joint_5_r', 'arm_left_joint_6_b', 'arm_left_joint_7_t']
position: [1.5617629289627075, -0.03880971670150757, 1.5187928511295468e-05, -1.0661925077438354, -0.25564321875572205, -1.550702691078186, 3.0078057534410618e-05]
velocity: []
effort: []
---
header: 
  seq: 6952
  stamp: 
    secs: 1464371392
    nsecs: 418665631
  frame_id: ''
name: ['torso_joint_b2']
position: [0.0]
velocity: []
effort: []
---
header: 
  seq: 6955
  stamp: 
    secs: 1464371392
    nsecs: 418778495
  frame_id: ''
name: ['arm_left_joint_1_s', 'arm_left_joint_2_l', 'arm_left_joint_3_e', 'arm_left_joint_4_u', 'arm_left_joint_5_r', 'arm_left_joint_6_b', 'arm_left_joint_7_t']
position: [1.5617629289627075, -0.03880971670150757, 1.5187928511295468e-05, -1.0661925077438354, -0.25564321875572205, -1.550702691078186, 3.0078057534410618e-05]
velocity: []
effort: []
---
header: 
  seq: 6956
  stamp: 
    secs: 1464371392
    nsecs: 443377433
  frame_id: ''
name: ['torso_joint_b2']
position: [0.0]
velocity: []
effort: []
---
header: 
  seq: 6957
  stamp: 
    secs: 1464371392
    nsecs: 443411096
  frame_id: ''
name: ['torso_joint_b1']
position: [0.0]
velocity: []
effort: []
---
header: 
  seq: 6958
  stamp: 
    secs: 1464371392
    nsecs: 443446925
  frame_id: ''
name: ['arm_right_joint_1_s', 'arm_right_joint_2_l', 'arm_right_joint_3_e', 'arm_right_joint_4_u', 'arm_right_joint_5_r', 'arm_right_joint_6_b', 'arm_right_joint_7_t']
position: [1.5729950666427612, 0.0006306365830823779, 0.0, -1.7000758647918701, -1.5187928511295468e-05, 1.5187928511295468e-05, -3.0078057534410618e-05]
velocity: []
effort: []
---
header: 
  seq: 6959
  stamp: 
    secs: 1464371392
    nsecs: 443495255
  frame_id: ''
name: ['arm_left_joint_1_s', 'arm_left_joint_2_l', 'arm_left_joint_3_e', 'arm_left_joint_4_u', 'arm_left_joint_5_r', 'arm_left_joint_6_b', 'arm_left_joint_7_t']
position: [1.5617629289627075, -0.03880971670150757, 1.5187928511295468e-05, -1.0661925077438354, -0.25564321875572205, -1.550702691078186, 3.0078057534410618e-05]
velocity: []
effort: []
---
header: 
  seq: 6960
  stamp: 
    secs: 1464371392
    nsecs: 468684771
  frame_id: ''
name: ['torso_joint_b2']
position: [0.0]
velocity: []
effort: []
---
header: 
  seq: 6961
  stamp: 
    secs: 1464371392
    nsecs: 468723044
  frame_id: ''
name: ['torso_joint_b1']
position: [0.0]
velocity: []
effort: []
---
header: 
  seq: 6962
  stamp: 
    secs: 1464371392
    nsecs: 468778009
  frame_id: ''
name: ['arm_right_joint_1_s', 'arm_right_joint_2_l', 'arm_right_joint_3_e', 'arm_right_joint_4_u', 'arm_right_joint_5_r', 'arm_right_joint_6_b', 'arm_right_joint_7_t']
position: [1.5729950666427612, 0.0006306365830823779, 0.0, -1.7000758647918701, -1.5187928511295468e-05, 1.5187928511295468e-05, -3.0078057534410618e-05]
velocity: []
effort: []
---
header: 
  seq: 6963
  stamp: 
    secs: 1464371392
    nsecs: 468837723
  frame_id: ''
name: ['arm_left_joint_1_s', 'arm_left_joint_2_l', 'arm_left_joint_3_e', 'arm_left_joint_4_u', 'arm_left_joint_5_r', 'arm_left_joint_6_b', 'arm_left_joint_7_t']
position: [1.5617629289627075, -0.03880971670150757, 1.5187928511295468e-05, -1.0661925077438354, -0.25564321875572205, -1.550702691078186, 3.0078057534410618e-05]
velocity: []
effort: []
---
header: 
  seq: 6964
  stamp: 
    secs: 1464371392
    nsecs: 493461735
  frame_id: ''
name: ['torso_joint_b2']
position: [0.0]
velocity: []
effort: []
---
header: 
  seq: 6965
  stamp: 
    secs: 1464371392
    nsecs: 493500985
  frame_id: ''
name: ['torso_joint_b1']
position: [0.0]
velocity: []
effort: []
---
header: 
  seq: 6966
  stamp: 
    secs: 1464371392
    nsecs: 493552039
  frame_id: ''
name: ['arm_right_joint_1_s', 'arm_right_joint_2_l', 'arm_right_joint_3_e', 'arm_right_joint_4_u', 'arm_right_joint_5_r', 'arm_right_joint_6_b', 'arm_right_joint_7_t']
position: [1.5729950666427612, 0.0006306365830823779, 0.0, -1.7000758647918701, -1.5187928511295468e-05, 1.5187928511295468e-05, -3.0078057534410618e-05]
velocity: []
effort: []
---
header: 
  seq: 6967
  stamp: 
    secs: 1464371392
    nsecs: 493595411
  frame_id: ''
name: ['arm_left_joint_1_s', 'arm_left_joint_2_l', 'arm_left_joint_3_e', 'arm_left_joint_4_u', 'arm_left_joint_5_r', 'arm_left_joint_6_b', 'arm_left_joint_7_t']
position: [1.5617629289627075, -0.03880971670150757, 1.5187928511295468e-05, -1.0661925077438354, -0.25564321875572205, -1.550702691078186, 3.0078057534410618e-05]
velocity: []
effort: []
---
header: 
  seq: 6968
  stamp: 
    secs: 1464371392
    nsecs: 519178343
  frame_id: ''
name: ['torso_joint_b2']
position: [0.0]
velocity: []
effort: []
---
header: 
  seq: 6971
  stamp: 
    secs: 1464371392
    nsecs: 519322565
  frame_id: ''
name: ['arm_left_joint_1_s', 'arm_left_joint_2_l', 'arm_left_joint_3_e', 'arm_left_joint_4_u', 'arm_left_joint_5_r', 'arm_left_joint_6_b', 'arm_left_joint_7_t']
position: [1.5617629289627075, -0.03880971670150757, 1.5187928511295468e-05, -1.0661925077438354, -0.25564321875572205, -1.550702691078186, 3.0078057534410618e-05]
velocity: []
effort: []
---
header: 
  seq: 6972
  stamp: 
    secs: 1464371392
    nsecs: 544106094
  frame_id: ''
name: ['torso_joint_b2']
position: [0.0]
velocity: []
effort: []
---
header: 
  seq: 6973
  stamp: 
    secs: 1464371392
    nsecs: 544134868
  frame_id: ''
name: ['torso_joint_b1']
position: [0.0]
velocity: []
effort: []
---
header: 
  seq: 6974
  stamp: 
    secs: 1464371392
    nsecs: 544157567
  frame_id: ''
name: ['arm_right_joint_1_s', 'arm_right_joint_2_l', 'arm_right_joint_3_e', 'arm_right_joint_4_u', 'arm_right_joint_5_r', 'arm_right_joint_6_b', 'arm_right_joint_7_t']
position: [1.5729950666427612, 0.0006306365830823779, 0.0, -1.7000758647918701, -1.5187928511295468e-05, 1.5187928511295468e-05, -3.0078057534410618e-05]
velocity: []
effort: []
---
header: 
  seq: 6975
  stamp: 
    secs: 1464371392
    nsecs: 544184805
  frame_id: ''
name: ['arm_left_joint_1_s', 'arm_left_joint_2_l', 'arm_left_joint_3_e', 'arm_left_joint_4_u', 'arm_left_joint_5_r', 'arm_left_joint_6_b', 'arm_left_joint_7_t']
position: [1.5617629289627075, -0.03880971670150757, 1.5187928511295468e-05, -1.0661925077438354, -0.25564321875572205, -1.550702691078186, 3.0078057534410618e-05]
velocity: []
effort: []
---
header: 
  seq: 6976
  stamp: 
    secs: 1464371392
    nsecs: 569301197
  frame_id: ''
name: ['torso_joint_b2']
position: [0.0]
velocity: []
effort: []
---
header: 
  seq: 6979
  stamp: 
    secs: 1464371392
    nsecs: 569429775
  frame_id: ''
name: ['arm_left_joint_1_s', 'arm_left_joint_2_l', 'arm_left_joint_3_e', 'arm_left_joint_4_u', 'arm_left_joint_5_r', 'arm_left_joint_6_b', 'arm_left_joint_7_t']
position: [1.5617629289627075, -0.03880971670150757, 1.5187928511295468e-05, -1.0661925077438354, -0.25564321875572205, -1.550702691078186, 3.0078057534410618e-05]
velocity: []
effort: []
---
header: 
  seq: 6980
  stamp: 
    secs: 1464371392
    nsecs: 594222732
  frame_id: ''
name: ['torso_joint_b2']
position: [0.0]
velocity: []
effort: []
---
header: 
  seq: 6983
  stamp: 
    secs: 1464371392
    nsecs: 594453628
  frame_id: ''
name: ['arm_left_joint_1_s', 'arm_left_joint_2_l', 'arm_left_joint_3_e', 'arm_left_joint_4_u', 'arm_left_joint_5_r', 'arm_left_joint_6_b', 'arm_left_joint_7_t']
position: [1.5617629289627075, -0.03880971670150757, 1.5187928511295468e-05, -1.0661925077438354, -0.25564321875572205, -1.550702691078186, 3.0078057534410618e-05]
velocity: []
effort: []
---
header: 
  seq: 6984
  stamp: 
    secs: 1464371392
    nsecs: 619166756
  frame_id: ''
name: ['torso_joint_b2']
position: [0.0]
velocity: []
effort: []
---
header: 
  seq: 6985
  stamp: 
    secs: 1464371392
    nsecs: 619189105
  frame_id: ''
name: ['torso_joint_b1']
position: [0.0]
velocity: []
effort: []
---
header: 
  seq: 6986
  stamp: 
    secs: 1464371392
    nsecs: 619211664
  frame_id: ''
name: ['arm_right_joint_1_s', 'arm_right_joint_2_l', 'arm_right_joint_3_e', 'arm_right_joint_4_u', 'arm_right_joint_5_r', 'arm_right_joint_6_b', 'arm_right_joint_7_t']
position: [1.5729950666427612, 0.0006306365830823779, 0.0, -1.7000758647918701, -1.5187928511295468e-05, 1.5187928511295468e-05, -3.0078057534410618e-05]
velocity: []
effort: []
---
header: 
  seq: 6987
  stamp: 
    secs: 1464371392
    nsecs: 619237086
  frame_id: ''
name: ['arm_left_joint_1_s', 'arm_left_joint_2_l', 'arm_left_joint_3_e', 'arm_left_joint_4_u', 'arm_left_joint_5_r', 'arm_left_joint_6_b', 'arm_left_joint_7_t']
position: [1.5617629289627075, -0.03880971670150757, 1.5187928511295468e-05, -1.0661925077438354, -0.25564321875572205, -1.550702691078186, 3.0078057534410618e-05]
velocity: []
effort: []
---
header: 
  seq: 6988
  stamp: 
    secs: 1464371392
    nsecs: 644162742
  frame_id: ''
name: ['torso_joint_b2']
position: [0.0]
velocity: []
effort: []
---
header: 
  seq: 6989
  stamp: 
    secs: 1464371392
    nsecs: 644185580
  frame_id: ''
name: ['torso_joint_b1']
position: [0.0]
velocity: []
effort: []
---
header: 
  seq: 6990
  stamp: 
    secs: 1464371392
    nsecs: 644208628
  frame_id: ''
name: ['arm_right_joint_1_s', 'arm_right_joint_2_l', 'arm_right_joint_3_e', 'arm_right_joint_4_u', 'arm_right_joint_5_r', 'arm_right_joint_6_b', 'arm_right_joint_7_t']
position: [1.5729950666427612, 0.0006306365830823779, 0.0, -1.7000758647918701, -1.5187928511295468e-05, 1.5187928511295468e-05, -3.0078057534410618e-05]
velocity: []
effort: []
---
header: 
  seq: 6991
  stamp: 
    secs: 1464371392
    nsecs: 644248228
  frame_id: ''
name: ['arm_left_joint_1_s', 'arm_left_joint_2_l', 'arm_left_joint_3_e', 'arm_left_joint_4_u', 'arm_left_joint_5_r', 'arm_left_joint_6_b', 'arm_left_joint_7_t']
position: [1.5617629289627075, -0.03880971670150757, 1.5187928511295468e-05, -1.0661925077438354, -0.25564321875572205, -1.550702691078186, 3.0078057534410618e-05]
velocity: []
effort: []
---
header: 
  seq: 6992
  stamp: 
    secs: 1464371392
    nsecs: 669113052
  frame_id: ''
name: ['torso_joint_b2']
position: [0.0]
velocity: []
effort: []
---
header: 
  seq: 6993
  stamp: 
    secs: 1464371392
    nsecs: 669154398
  frame_id: ''
name: ['torso_joint_b1']
position: [0.0]
velocity: []
effort: []
---
header: 
  seq: 6994
  stamp: 
    secs: 1464371392
    nsecs: 669195604
  frame_id: ''
name: ['arm_right_joint_1_s', 'arm_right_joint_2_l', 'arm_right_joint_3_e', 'arm_right_joint_4_u', 'arm_right_joint_5_r', 'arm_right_joint_6_b', 'arm_right_joint_7_t']
position: [1.5729950666427612, 0.0006306365830823779, 0.0, -1.7000758647918701, -1.5187928511295468e-05, 1.5187928511295468e-05, -3.0078057534410618e-05]
velocity: []
effort: []
---
header: 
  seq: 6995
  stamp: 
    secs: 1464371392
    nsecs: 669252525
  frame_id: ''
name: ['arm_left_joint_1_s', 'arm_left_joint_2_l', 'arm_left_joint_3_e', 'arm_left_joint_4_u', 'arm_left_joint_5_r', 'arm_left_joint_6_b', 'arm_left_joint_7_t']
position: [1.5617629289627075, -0.03880971670150757, 1.5187928511295468e-05, -1.0661925077438354, -0.25564321875572205, -1.550702691078186, 3.0078057534410618e-05]
velocity: []
effort: []
---
header: 
  seq: 6996
  stamp: 
    secs: 1464371392
    nsecs: 694152479
  frame_id: ''
name: ['torso_joint_b2']
position: [0.0]
velocity: []
effort: []
---
header: 
  seq: 6999
  stamp: 
    secs: 1464371392
    nsecs: 694270161
  frame_id: ''
name: ['arm_left_joint_1_s', 'arm_left_joint_2_l', 'arm_left_joint_3_e', 'arm_left_joint_4_u', 'arm_left_joint_5_r', 'arm_left_joint_6_b', 'arm_left_joint_7_t']
position: [1.5617629289627075, -0.03880971670150757, 1.5187928511295468e-05, -1.0661925077438354, -0.25564321875572205, -1.550702691078186, 3.0078057534410618e-05]
velocity: []
effort: []
---
header: 
  seq: 7000
  stamp: 
    secs: 1464371392
    nsecs: 719153284
  frame_id: ''
name: ['torso_joint_b2']
position: [0.0]
velocity: []
effort: []
---
header: 
  seq: 7001
  stamp: 
    secs: 1464371392
    nsecs: 719192116
  frame_id: ''
name: ['torso_joint_b1']
position: [0.0]
velocity: []
effort: []
---
header: 
  seq: 7002
  stamp: 
    secs: 1464371392
    nsecs: 719219912
  frame_id: ''
name: ['arm_right_joint_1_s', 'arm_right_joint_2_l', 'arm_right_joint_3_e', 'arm_right_joint_4_u', 'arm_right_joint_5_r', 'arm_right_joint_6_b', 'arm_right_joint_7_t']
position: [1.5729950666427612, 0.0006306365830823779, 0.0, -1.7000758647918701, -1.5187928511295468e-05, 1.5187928511295468e-05, -3.0078057534410618e-05]
velocity: []
effort: []
---
header: 
  seq: 7003
  stamp: 
    secs: 1464371392
    nsecs: 719256858
  frame_id: ''
name: ['arm_left_joint_1_s', 'arm_left_joint_2_l', 'arm_left_joint_3_e', 'arm_left_joint_4_u', 'arm_left_joint_5_r', 'arm_left_joint_6_b', 'arm_left_joint_7_t']
position: [1.5617629289627075, -0.03880971670150757, 1.5187928511295468e-05, -1.0661925077438354, -0.25564321875572205, -1.550702691078186, 3.0078057534410618e-05]
velocity: []
effort: []
---
header: 
  seq: 7004
  stamp: 
    secs: 1464371392
    nsecs: 744186914
  frame_id: ''
name: ['torso_joint_b2']
position: [0.0]
velocity: []
effort: []
---
header: 
  seq: 7007
  stamp: 
    secs: 1464371392
    nsecs: 744336095
  frame_id: ''
name: ['arm_left_joint_1_s', 'arm_left_joint_2_l', 'arm_left_joint_3_e', 'arm_left_joint_4_u', 'arm_left_joint_5_r', 'arm_left_joint_6_b', 'arm_left_joint_7_t']
position: [1.5617629289627075, -0.03880971670150757, 1.5187928511295468e-05, -1.0661925077438354, -0.25564321875572205, -1.550702691078186, 3.0078057534410618e-05]
velocity: []
effort: []
---
header: 
  seq: 7008
  stamp: 
    secs: 1464371392
    nsecs: 769113548
  frame_id: ''
name: ['torso_joint_b2']
position: [0.0]
velocity: []
effort: []
---
header: 
  seq: 7011
  stamp: 
    secs: 1464371392
    nsecs: 769219706
  frame_id: ''
name: ['arm_left_joint_1_s', 'arm_left_joint_2_l', 'arm_left_joint_3_e', 'arm_left_joint_4_u', 'arm_left_joint_5_r', 'arm_left_joint_6_b', 'arm_left_joint_7_t']
position: [1.5617629289627075, -0.03880971670150757, 1.5187928511295468e-05, -1.0661925077438354, -0.25564321875572205, -1.550702691078186, 3.0078057534410618e-05]
velocity: []
effort: []
---
header: 
  seq: 7012
  stamp: 
    secs: 1464371392
    nsecs: 794092283
  frame_id: ''
name: ['torso_joint_b2']
position: [0.0]
velocity: []
effort: []
---
header: 
  seq: 7013
  stamp: 
    secs: 1464371392
    nsecs: 794131953
  frame_id: ''
name: ['torso_joint_b1']
position: [0.0]
velocity: []
effort: []
---
header: 
  seq: 7014
  stamp: 
    secs: 1464371392
    nsecs: 794154860
  frame_id: ''
name: ['arm_right_joint_1_s', 'arm_right_joint_2_l', 'arm_right_joint_3_e', 'arm_right_joint_4_u', 'arm_right_joint_5_r', 'arm_right_joint_6_b', 'arm_right_joint_7_t']
position: [1.5729950666427612, 0.0006306365830823779, 0.0, -1.7000758647918701, -1.5187928511295468e-05, 1.5187928511295468e-05, -3.0078057534410618e-05]
velocity: []
effort: []
---
header: 
  seq: 7015
  stamp: 
    secs: 1464371392
    nsecs: 794180981
  frame_id: ''
name: ['arm_left_joint_1_s', 'arm_left_joint_2_l', 'arm_left_joint_3_e', 'arm_left_joint_4_u', 'arm_left_joint_5_r', 'arm_left_joint_6_b', 'arm_left_joint_7_t']
position: [1.5617629289627075, -0.03880971670150757, 1.5187928511295468e-05, -1.0661925077438354, -0.25564321875572205, -1.550702691078186, 3.0078057534410618e-05]
velocity: []
effort: []
---
header: 
  seq: 7016
  stamp: 
    secs: 1464371392
    nsecs: 819120884
  frame_id: ''
name: ['torso_joint_b2']
position: [0.0]
velocity: []
effort: []
---
header: 
  seq: 7017
  stamp: 
    secs: 1464371392
    nsecs: 819172427
  frame_id: ''
name: ['torso_joint_b1']
position: [0.0]
velocity: []
effort: []
---
header: 
  seq: 7018
  stamp: 
    secs: 1464371392
    nsecs: 819206719
  frame_id: ''
name: ['arm_right_joint_1_s', 'arm_right_joint_2_l', 'arm_right_joint_3_e', 'arm_right_joint_4_u', 'arm_right_joint_5_r', 'arm_right_joint_6_b', 'arm_right_joint_7_t']
position: [1.5729950666427612, 0.0006306365830823779, 0.0, -1.7000758647918701, -1.5187928511295468e-05, 1.5187928511295468e-05, -3.0078057534410618e-05]
velocity: []
effort: []
---
header: 
  seq: 7019
  stamp: 
    secs: 1464371392
    nsecs: 819269018
  frame_id: ''
name: ['arm_left_joint_1_s', 'arm_left_joint_2_l', 'arm_left_joint_3_e', 'arm_left_joint_4_u', 'arm_left_joint_5_r', 'arm_left_joint_6_b', 'arm_left_joint_7_t']
position: [1.5617629289627075, -0.03880971670150757, 1.5187928511295468e-05, -1.0661925077438354, -0.25564321875572205, -1.550702691078186, 3.0078057534410618e-05]
velocity: []
effort: []
---
header: 
  seq: 7020
  stamp: 
    secs: 1464371392
    nsecs: 844128534
  frame_id: ''
name: ['torso_joint_b2']
position: [0.0]
velocity: []
effort: []
---
header: 
  seq: 7023
  stamp: 
    secs: 1464371392
    nsecs: 844249080
  frame_id: ''
name: ['arm_left_joint_1_s', 'arm_left_joint_2_l', 'arm_left_joint_3_e', 'arm_left_joint_4_u', 'arm_left_joint_5_r', 'arm_left_joint_6_b', 'arm_left_joint_7_t']
position: [1.5617629289627075, -0.03880971670150757, 1.5187928511295468e-05, -1.0661925077438354, -0.25564321875572205, -1.550702691078186, 3.0078057534410618e-05]
velocity: []
effort: []
---
header: 
  seq: 7024
  stamp: 
    secs: 1464371392
    nsecs: 869119491
  frame_id: ''
name: ['torso_joint_b2']
position: [0.0]
velocity: []
effort: []
---
header: 
  seq: 7025
  stamp: 
    secs: 1464371392
    nsecs: 869159440
  frame_id: ''
name: ['torso_joint_b1']
position: [0.0]
velocity: []
effort: []
---
header: 
  seq: 7026
  stamp: 
    secs: 1464371392
    nsecs: 869201275
  frame_id: ''
name: ['arm_right_joint_1_s', 'arm_right_joint_2_l', 'arm_right_joint_3_e', 'arm_right_joint_4_u', 'arm_right_joint_5_r', 'arm_right_joint_6_b', 'arm_right_joint_7_t']
position: [1.5729950666427612, 0.0006306365830823779, 0.0, -1.7000758647918701, -1.5187928511295468e-05, 1.5187928511295468e-05, -3.0078057534410618e-05]
velocity: []
effort: []
---
header: 
  seq: 7027
  stamp: 
    secs: 1464371392
    nsecs: 869252190
  frame_id: ''
name: ['arm_left_joint_1_s', 'arm_left_joint_2_l', 'arm_left_joint_3_e', 'arm_left_joint_4_u', 'arm_left_joint_5_r', 'arm_left_joint_6_b', 'arm_left_joint_7_t']
position: [1.5617629289627075, -0.03880971670150757, 1.5187928511295468e-05, -1.0661925077438354, -0.25564321875572205, -1.550702691078186, 3.0078057534410618e-05]
velocity: []
effort: []
---
header: 
  seq: 7028
  stamp: 
    secs: 1464371392
    nsecs: 894167579
  frame_id: ''
name: ['torso_joint_b2']
position: [0.0]
velocity: []
effort: []
---
header: 
  seq: 7029
  stamp: 
    secs: 1464371392
    nsecs: 894202360
  frame_id: ''
name: ['torso_joint_b1']
position: [0.0]
velocity: []
effort: []
---
header: 
  seq: 7030
  stamp: 
    secs: 1464371392
    nsecs: 894249782
  frame_id: ''
name: ['arm_right_joint_1_s', 'arm_right_joint_2_l', 'arm_right_joint_3_e', 'arm_right_joint_4_u', 'arm_right_joint_5_r', 'arm_right_joint_6_b', 'arm_right_joint_7_t']
position: [1.5729950666427612, 0.0006306365830823779, 0.0, -1.7000758647918701, -1.5187928511295468e-05, 1.5187928511295468e-05, -3.0078057534410618e-05]
velocity: []
effort: []
---
header: 
  seq: 7031
  stamp: 
    secs: 1464371392
    nsecs: 894296087
  frame_id: ''
name: ['arm_left_joint_1_s', 'arm_left_joint_2_l', 'arm_left_joint_3_e', 'arm_left_joint_4_u', 'arm_left_joint_5_r', 'arm_left_joint_6_b', 'arm_left_joint_7_t']
position: [1.5617629289627075, -0.03880971670150757, 1.5187928511295468e-05, -1.0661925077438354, -0.25564321875572205, -1.550702691078186, 3.0078057534410618e-05]
velocity: []
effort: []
---
header: 
  seq: 7032
  stamp: 
    secs: 1464371392
    nsecs: 919156091
  frame_id: ''
name: ['torso_joint_b2']
position: [0.0]
velocity: []
effort: []
---
header: 
  seq: 7035
  stamp: 
    secs: 1464371392
    nsecs: 919273634
  frame_id: ''
name: ['arm_left_joint_1_s', 'arm_left_joint_2_l', 'arm_left_joint_3_e', 'arm_left_joint_4_u', 'arm_left_joint_5_r', 'arm_left_joint_6_b', 'arm_left_joint_7_t']
position: [1.5617629289627075, -0.03880971670150757, 1.5187928511295468e-05, -1.0661925077438354, -0.25564321875572205, -1.550702691078186, 3.0078057534410618e-05]
velocity: []
effort: []
---
header: 
  seq: 7036
  stamp: 
    secs: 1464371392
    nsecs: 944143207
  frame_id: ''
name: ['torso_joint_b2']
position: [0.0]
velocity: []
effort: []
---
header: 
  seq: 7039
  stamp: 
    secs: 1464371392
    nsecs: 944262357
  frame_id: ''
name: ['arm_left_joint_1_s', 'arm_left_joint_2_l', 'arm_left_joint_3_e', 'arm_left_joint_4_u', 'arm_left_joint_5_r', 'arm_left_joint_6_b', 'arm_left_joint_7_t']
position: [1.5617629289627075, -0.03880971670150757, 1.5187928511295468e-05, -1.0661925077438354, -0.25564321875572205, -1.550702691078186, 3.0078057534410618e-05]
velocity: []
effort: []
---
header: 
  seq: 7040
  stamp: 
    secs: 1464371392
    nsecs: 969130463
  frame_id: ''
name: ['torso_joint_b2']
position: [0.0]
velocity: []
effort: []
---
header: 
  seq: 7041
  stamp: 
    secs: 1464371392
    nsecs: 969177466
  frame_id: ''
name: ['torso_joint_b1']
position: [0.0]
velocity: []
effort: []
---
header: 
  seq: 7042
  stamp: 
    secs: 1464371392
    nsecs: 969234527
  frame_id: ''
name: ['arm_right_joint_1_s', 'arm_right_joint_2_l', 'arm_right_joint_3_e', 'arm_right_joint_4_u', 'arm_right_joint_5_r', 'arm_right_joint_6_b', 'arm_right_joint_7_t']
position: [1.5729950666427612, 0.0006306365830823779, 0.0, -1.7000758647918701, -1.5187928511295468e-05, 1.5187928511295468e-05, -3.0078057534410618e-05]
velocity: []
effort: []
---
header: 
  seq: 7043
  stamp: 
    secs: 1464371392
    nsecs: 969286558
  frame_id: ''
name: ['arm_left_joint_1_s', 'arm_left_joint_2_l', 'arm_left_joint_3_e', 'arm_left_joint_4_u', 'arm_left_joint_5_r', 'arm_left_joint_6_b', 'arm_left_joint_7_t']
position: [1.5617629289627075, -0.03880971670150757, 1.5187928511295468e-05, -1.0661925077438354, -0.25564321875572205, -1.550702691078186, 3.0078057534410618e-05]
velocity: []
effort: []
---
header: 
  seq: 7044
  stamp: 
    secs: 1464371392
    nsecs: 994112341
  frame_id: ''
name: ['torso_joint_b2']
position: [0.0]
velocity: []
effort: []
---
header: 
  seq: 7045
  stamp: 
    secs: 1464371392
    nsecs: 994288481
  frame_id: ''
name: ['torso_joint_b1']
position: [0.0]
velocity: []
effort: []
---
header: 
  seq: 7047
  stamp: 
    secs: 1464371392
    nsecs: 994384303
  frame_id: ''
name: ['arm_left_joint_1_s', 'arm_left_joint_2_l', 'arm_left_joint_3_e', 'arm_left_joint_4_u', 'arm_left_joint_5_r', 'arm_left_joint_6_b', 'arm_left_joint_7_t']
position: [1.5617629289627075, -0.03880971670150757, 1.5187928511295468e-05, -1.0661925077438354, -0.25564321875572205, -1.550702691078186, 3.0078057534410618e-05]
velocity: []
effort: []
---
header: 
  seq: 7048
  stamp: 
    secs: 1464371393
    nsecs: 19135076
  frame_id: ''
name: ['torso_joint_b2']
position: [0.0]
velocity: []
effort: []
---
header: 
  seq: 7049
  stamp: 
    secs: 1464371393
    nsecs: 19159590
  frame_id: ''
name: ['torso_joint_b1']
position: [0.0]
velocity: []
effort: []
---
header: 
  seq: 7050
  stamp: 
    secs: 1464371393
    nsecs: 19182987
  frame_id: ''
name: ['arm_right_joint_1_s', 'arm_right_joint_2_l', 'arm_right_joint_3_e', 'arm_right_joint_4_u', 'arm_right_joint_5_r', 'arm_right_joint_6_b', 'arm_right_joint_7_t']
position: [1.5729950666427612, 0.0006306365830823779, 0.0, -1.7000758647918701, -1.5187928511295468e-05, 1.5187928511295468e-05, -3.0078057534410618e-05]
velocity: []
effort: []
---
header: 
  seq: 7051
  stamp: 
    secs: 1464371393
    nsecs: 19208410
  frame_id: ''
name: ['arm_left_joint_1_s', 'arm_left_joint_2_l', 'arm_left_joint_3_e', 'arm_left_joint_4_u', 'arm_left_joint_5_r', 'arm_left_joint_6_b', 'arm_left_joint_7_t']
position: [1.5617629289627075, -0.03880971670150757, 1.5187928511295468e-05, -1.0661925077438354, -0.25564321875572205, -1.550702691078186, 3.0078057534410618e-05]
velocity: []
effort: []
---
header: 
  seq: 7052
  stamp: 
    secs: 1464371393
    nsecs: 44062408
  frame_id: ''
name: ['torso_joint_b2']
position: [0.0]
velocity: []
effort: []
---
header: 
  seq: 7053
  stamp: 
    secs: 1464371393
    nsecs: 44084408
  frame_id: ''
name: ['torso_joint_b1']
position: [0.0]
velocity: []
effort: []
---
header: 
  seq: 7054
  stamp: 
    secs: 1464371393
    nsecs: 44120726
  frame_id: ''
name: ['arm_right_joint_1_s', 'arm_right_joint_2_l', 'arm_right_joint_3_e', 'arm_right_joint_4_u', 'arm_right_joint_5_r', 'arm_right_joint_6_b', 'arm_right_joint_7_t']
position: [1.5729950666427612, 0.0006306365830823779, 0.0, -1.7000758647918701, -1.5187928511295468e-05, 1.5187928511295468e-05, -3.0078057534410618e-05]
velocity: []
effort: []
---
header: 
  seq: 7055
  stamp: 
    secs: 1464371393
    nsecs: 44150408
  frame_id: ''
name: ['arm_left_joint_1_s', 'arm_left_joint_2_l', 'arm_left_joint_3_e', 'arm_left_joint_4_u', 'arm_left_joint_5_r', 'arm_left_joint_6_b', 'arm_left_joint_7_t']
position: [1.5617629289627075, -0.03880971670150757, 1.5187928511295468e-05, -1.0661925077438354, -0.25564321875572205, -1.550702691078186, 3.0078057534410618e-05]
velocity: []
effort: []
---
header: 
  seq: 7056
  stamp: 
    secs: 1464371393
    nsecs: 69150794
  frame_id: ''
name: ['torso_joint_b2']
position: [0.0]
velocity: []
effort: []
---
header: 
  seq: 7059
  stamp: 
    secs: 1464371393
    nsecs: 69268197
  frame_id: ''
name: ['arm_left_joint_1_s', 'arm_left_joint_2_l', 'arm_left_joint_3_e', 'arm_left_joint_4_u', 'arm_left_joint_5_r', 'arm_left_joint_6_b', 'arm_left_joint_7_t']
position: [1.5617629289627075, -0.03880971670150757, 1.5187928511295468e-05, -1.0661925077438354, -0.25564321875572205, -1.550702691078186, 3.0078057534410618e-05]
velocity: []
effort: []
---
header: 
  seq: 7060
  stamp: 
    secs: 1464371393
    nsecs: 94132183
  frame_id: ''
name: ['torso_joint_b2']
position: [0.0]
velocity: []
effort: []
---
header: 
  seq: 7061
  stamp: 
    secs: 1464371393
    nsecs: 94166615
  frame_id: ''
name: ['torso_joint_b1']
position: [0.0]
velocity: []
effort: []
---
header: 
  seq: 7062
  stamp: 
    secs: 1464371393
    nsecs: 94220812
  frame_id: ''
name: ['arm_right_joint_1_s', 'arm_right_joint_2_l', 'arm_right_joint_3_e', 'arm_right_joint_4_u', 'arm_right_joint_5_r', 'arm_right_joint_6_b', 'arm_right_joint_7_t']
position: [1.5729950666427612, 0.0006306365830823779, 0.0, -1.7000758647918701, -1.5187928511295468e-05, 1.5187928511295468e-05, -3.0078057534410618e-05]
velocity: []
effort: []
---
header: 
  seq: 7063
  stamp: 
    secs: 1464371393
    nsecs: 94272424
  frame_id: ''
name: ['arm_left_joint_1_s', 'arm_left_joint_2_l', 'arm_left_joint_3_e', 'arm_left_joint_4_u', 'arm_left_joint_5_r', 'arm_left_joint_6_b', 'arm_left_joint_7_t']
position: [1.5617629289627075, -0.03880971670150757, 1.5187928511295468e-05, -1.0661925077438354, -0.25564321875572205, -1.550702691078186, 3.0078057534410618e-05]
velocity: []
effort: []
---
header: 
  seq: 7064
  stamp: 
    secs: 1464371393
    nsecs: 119220290
  frame_id: ''
name: ['torso_joint_b2']
position: [0.0]
velocity: []
effort: []
---
header: 
  seq: 7065
  stamp: 
    secs: 1464371393
    nsecs: 119269458
  frame_id: ''
name: ['torso_joint_b1']
position: [0.0]
velocity: []
effort: []
---
header: 
  seq: 7066
  stamp: 
    secs: 1464371393
    nsecs: 119351661
  frame_id: ''
name: ['arm_right_joint_1_s', 'arm_right_joint_2_l', 'arm_right_joint_3_e', 'arm_right_joint_4_u', 'arm_right_joint_5_r', 'arm_right_joint_6_b', 'arm_right_joint_7_t']
position: [1.5729950666427612, 0.0006306365830823779, 0.0, -1.7000758647918701, -1.5187928511295468e-05, 1.5187928511295468e-05, -3.0078057534410618e-05]
velocity: []
effort: []
---
header: 
  seq: 7067
  stamp: 
    secs: 1464371393
    nsecs: 119411864
  frame_id: ''
name: ['arm_left_joint_1_s', 'arm_left_joint_2_l', 'arm_left_joint_3_e', 'arm_left_joint_4_u', 'arm_left_joint_5_r', 'arm_left_joint_6_b', 'arm_left_joint_7_t']
position: [1.5617629289627075, -0.03880971670150757, 1.5187928511295468e-05, -1.0661925077438354, -0.25564321875572205, -1.550702691078186, 3.0078057534410618e-05]
velocity: []
effort: []
---
header: 
  seq: 7068
  stamp: 
    secs: 1464371393
    nsecs: 144106974
  frame_id: ''
name: ['torso_joint_b2']
position: [0.0]
velocity: []
effort: []
---
header: 
  seq: 7069
  stamp: 
    secs: 1464371393
    nsecs: 144159285
  frame_id: ''
name: ['torso_joint_b1']
position: [0.0]
velocity: []
effort: []
---
header: 
  seq: 7070
  stamp: 
    secs: 1464371393
    nsecs: 144210898
  frame_id: ''
name: ['arm_right_joint_1_s', 'arm_right_joint_2_l', 'arm_right_joint_3_e', 'arm_right_joint_4_u', 'arm_right_joint_5_r', 'arm_right_joint_6_b', 'arm_right_joint_7_t']
position: [1.5729950666427612, 0.0006306365830823779, 0.0, -1.7000758647918701, -1.5187928511295468e-05, 1.5187928511295468e-05, -3.0078057534410618e-05]
velocity: []
effort: []
---
header: 
  seq: 7071
  stamp: 
    secs: 1464371393
    nsecs: 144261533
  frame_id: ''
name: ['arm_left_joint_1_s', 'arm_left_joint_2_l', 'arm_left_joint_3_e', 'arm_left_joint_4_u', 'arm_left_joint_5_r', 'arm_left_joint_6_b', 'arm_left_joint_7_t']
position: [1.5617629289627075, -0.03880971670150757, 1.5187928511295468e-05, -1.0661925077438354, -0.25564321875572205, -1.550702691078186, 3.0078057534410618e-05]
velocity: []
effort: []
---
header: 
  seq: 7072
  stamp: 
    secs: 1464371393
    nsecs: 169135855
  frame_id: ''
name: ['torso_joint_b2']
position: [0.0]
velocity: []
effort: []
---
header: 
  seq: 7075
  stamp: 
    secs: 1464371393
    nsecs: 169245855
  frame_id: ''
name: ['arm_left_joint_1_s', 'arm_left_joint_2_l', 'arm_left_joint_3_e', 'arm_left_joint_4_u', 'arm_left_joint_5_r', 'arm_left_joint_6_b', 'arm_left_joint_7_t']
position: [1.5617629289627075, -0.03880971670150757, 1.5187928511295468e-05, -1.0661925077438354, -0.25564321875572205, -1.550702691078186, 3.0078057534410618e-05]
velocity: []
effort: []
---
header: 
  seq: 7076
  stamp: 
    secs: 1464371393
    nsecs: 194100692
  frame_id: ''
name: ['torso_joint_b2']
position: [0.0]
velocity: []
effort: []
---
header: 
  seq: 7077
  stamp: 
    secs: 1464371393
    nsecs: 194136031
  frame_id: ''
name: ['torso_joint_b1']
position: [0.0]
velocity: []
effort: []
---
header: 
  seq: 7078
  stamp: 
    secs: 1464371393
    nsecs: 194191206
  frame_id: ''
name: ['arm_right_joint_1_s', 'arm_right_joint_2_l', 'arm_right_joint_3_e', 'arm_right_joint_4_u', 'arm_right_joint_5_r', 'arm_right_joint_6_b', 'arm_right_joint_7_t']
position: [1.5729950666427612, 0.0006306365830823779, 0.0, -1.7000758647918701, -1.5187928511295468e-05, 1.5187928511295468e-05, -3.0078057534410618e-05]
velocity: []
effort: []
---
header: 
  seq: 7079
  stamp: 
    secs: 1464371393
    nsecs: 194244704
  frame_id: ''
name: ['arm_left_joint_1_s', 'arm_left_joint_2_l', 'arm_left_joint_3_e', 'arm_left_joint_4_u', 'arm_left_joint_5_r', 'arm_left_joint_6_b', 'arm_left_joint_7_t']
position: [1.5617629289627075, -0.03880971670150757, 1.5187928511295468e-05, -1.0661925077438354, -0.25564321875572205, -1.550702691078186, 3.0078057534410618e-05]
velocity: []
effort: []
---
header: 
  seq: 7080
  stamp: 
    secs: 1464371393
    nsecs: 219100379
  frame_id: ''
name: ['torso_joint_b2']
position: [0.0]
velocity: []
effort: []
---
header: 
  seq: 7081
  stamp: 
    secs: 1464371393
    nsecs: 219134950
  frame_id: ''
name: ['torso_joint_b1']
position: [0.0]
velocity: []
effort: []
---
header: 
  seq: 7082
  stamp: 
    secs: 1464371393
    nsecs: 219157928
  frame_id: ''
name: ['arm_right_joint_1_s', 'arm_right_joint_2_l', 'arm_right_joint_3_e', 'arm_right_joint_4_u', 'arm_right_joint_5_r', 'arm_right_joint_6_b', 'arm_right_joint_7_t']
position: [1.5729950666427612, 0.0006306365830823779, 0.0, -1.7000758647918701, -1.5187928511295468e-05, 1.5187928511295468e-05, -3.0078057534410618e-05]
velocity: []
effort: []
---
header: 
  seq: 7083
  stamp: 
    secs: 1464371393
    nsecs: 219184049
  frame_id: ''
name: ['arm_left_joint_1_s', 'arm_left_joint_2_l', 'arm_left_joint_3_e', 'arm_left_joint_4_u', 'arm_left_joint_5_r', 'arm_left_joint_6_b', 'arm_left_joint_7_t']
